Time,header.seq,header.stamp.secs,header.stamp.nsecs,header.frame_id,pose.position.x,pose.position.y,pose.position.z,pose.orientation.x,pose.orientation.y,pose.orientation.z,pose.orientation.w
1658858737.0280957,5248,1658858737,26846144,map,5.637089729309082,5.745588302612305,-0.7078758478164673,-0.00022580406488032,0.012558586313745668,-0.7280130574998164,-0.6854481884373855
1658858737.0780013,5249,1658858737,76846144,map,5.638082027435303,5.747874736785889,-0.7117800116539001,-0.00021723918402136915,0.012574769454313451,-0.7280078399546652,-0.6854534360150589
1658858737.1281738,5250,1658858737,126845632,map,5.638877868652344,5.750057220458984,-0.7155703902244568,-0.00021561317520065216,0.012593948319068949,-0.7280018844985829,-0.6854594095518766
1658858737.1852612,5251,1658858737,176845632,map,5.639522552490234,5.752514839172363,-0.7195325493812561,-0.0002103086884662873,0.01260453040310825,-0.7279914246132371,-0.6854703255963474
1658858737.2350972,5252,1658858737,226849728,map,5.639991283416748,5.755163192749023,-0.7238135933876038,-0.0002090432720906152,0.012634797028197437,-0.7279865877912353,-0.6854749055954134
1658858737.2910662,5253,1658858737,276849728,map,5.640292644500732,5.75767183303833,-0.7275143265724182,-0.0001997692889062057,0.012637809099561245,-0.7279888601490159,-0.6854724395424888
1658858737.328041,5254,1658858737,326849216,map,5.640449047088623,5.760045528411865,-0.731080174446106,-0.0001996731385094293,0.012655119639710437,-0.7279784078641868,-0.6854832206269283
1658858737.3778856,5255,1658858737,376849216,map,5.640935897827148,5.762825012207031,-0.7335386872291565,-0.00019453566359068294,0.012669640339249413,-0.7279880524036588,-0.6854727112927818
1658858737.4283445,5256,1658858737,426850240,map,5.641644477844238,5.765920639038086,-0.7356656789779663,-0.00019479159990664109,0.012685279601302476,-0.7279876852581249,-0.6854728118971508
1658858737.4780457,5257,1658858737,476850240,map,5.642131328582764,5.7688212394714355,-0.7376083135604858,-0.00019461139429110974,0.012704747957908156,-0.7279868138727947,-0.6854733768229574
1658858737.5282373,5258,1658858737,526849472,map,5.642437934875488,5.771551609039307,-0.7398384213447571,-0.00020299523541114864,0.012716128196011492,-0.7279857584622215,-0.6854742842388917
1658858737.5785728,5259,1658858737,576849472,map,5.643571376800537,5.774073123931885,-0.7418971657752991,-0.00019688206730239746,0.0127277161151941,-0.7279885666378924,-0.6854710886131152
1658858737.62807,5260,1658858737,626848448,map,5.644415855407715,5.776435852050781,-0.7440764904022217,-0.00018205259596501942,0.012722811647662906,-0.7279881022415164,-0.6854716769607813
1658858737.6781375,5261,1658858737,676848448,map,5.645026206970215,5.77866792678833,-0.7459992170333862,-0.00017397902748681574,0.01271735008240945,-0.7279782609463556,-0.6854822319562334
1658858737.7399228,5262,1658858737,726854592,map,5.645436763763428,5.780818939208984,-0.7482113838195801,-0.00017237474701571227,0.012716496550655567,-0.7279758652276691,-0.6854847924268271
1658858737.7838273,5263,1658858737,776854592,map,5.646335601806641,5.7820143699646,-0.7503863573074341,-0.00017027017450435347,0.012720387276140895,-0.72797376116518,-0.6854869552446891
1658858737.828277,5264,1658858737,826857664,map,5.647596836090088,5.782373905181885,-0.752528965473175,-0.0001570574021519125,0.012719557904665689,-0.7279666647610998,-0.6854945099534225
1658858737.8785346,5265,1658858737,876857664,map,5.648560047149658,5.782823085784912,-0.7543315291404724,-0.00017694402582714742,0.012737936127387243,-0.7279614575437476,-0.6854996936577059
1658858737.9285412,5266,1658858737,926857920,map,5.649272441864014,5.783344268798828,-0.7559812068939209,-0.0001835696833882282,0.012735663126676917,-0.7279669687497264,-0.6854938815162612
1658858737.9785304,5267,1658858737,976857920,map,5.651023864746094,5.7828168869018555,-0.7572788596153259,-0.0002046729112760503,0.012754654270703263,-0.7279588368707297,-0.6855021580748294
1658858738.0286388,5268,1658858738,26857664,map,5.653583526611328,5.7813849449157715,-0.7581341862678528,-0.00021982251074348594,0.012775088037623512,-0.7279566623160978,-0.6855040821127919
1658858738.0786245,5269,1658858738,76857664,map,5.655703067779541,5.780186176300049,-0.7587637901306152,-0.00023230460616719076,0.012788895102086018,-0.7279463942852488,-0.6855147243084885
1658858738.1288147,5270,1658858738,126857408,map,5.65745735168457,5.779191970825195,-0.7593538165092468,-0.00026188124276959777,0.012819437554556182,-0.7279416834291119,-0.685519145586314
1658858738.1766357,5271,1658858738,174857408,map,5.659360408782959,5.778144359588623,-0.7594450116157532,-0.00028571568982521114,0.012827534451220191,-0.727943859196017,-0.6855166741847033
1658858738.248586,5272,1658858738,226857664,map,5.6621527671813965,5.776962757110596,-0.7586525678634644,-0.0003048034331200874,0.01285049222383729,-0.7279296928601876,-0.6855312787881709
1658858738.290643,5273,1658858738,276857664,map,5.664482116699219,5.775898456573486,-0.7579864263534546,-0.0003167361044651044,0.012866314995965286,-0.7279220744153555,-0.6855390661337326
1658858738.3385484,5274,1658858738,326857664,map,5.666415691375732,5.774996757507324,-0.7577513456344604,-0.0003382871082756013,0.012870924008489302,-0.7279172478406597,-0.6855440942587717
1658858738.3806438,5275,1658858738,376857664,map,5.6687092781066895,5.775104522705078,-0.7580737471580505,-0.00034162525076180414,0.012885330332702472,-0.7279080298758437,-0.6855536095716168
1658858738.427512,5276,1658858738,424858176,map,5.671266555786133,5.775994777679443,-0.7585516571998596,-0.00036039431294445214,0.012892003328555477,-0.7279114555986855,-0.6855498371193145
1658858738.4784217,5277,1658858738,476858176,map,5.673374652862549,5.776916980743408,-0.7588220238685608,-0.0003653717581797658,0.01289580836348925,-0.727898829829103,-0.6855631686165418
1658858738.5285602,5278,1658858738,526858688,map,5.675125598907471,5.777757167816162,-0.7590246200561523,-0.00036806093929054077,0.012902493194159873,-0.7278904495669759,-0.685571939062346
1658858738.5785708,5279,1658858738,576858688,map,5.677195072174072,5.777811050415039,-0.7595933079719543,-0.000391935377557677,0.012906902034588566,-0.7278852200376772,-0.685577395132914
1658858738.6284723,5280,1658858738,626859200,map,5.679477691650391,5.777166366577148,-0.7608501315116882,-0.00039791351035050606,0.01291838362130827,-0.7278739904864002,-0.6855890977858784
1658858738.6783698,5281,1658858738,676859200,map,5.681352138519287,5.776641368865967,-0.7620071172714233,-0.00040767858905085103,0.012933536794632178,-0.7278665773390409,-0.6855966766378759
1658858738.7285879,5282,1658858738,726859456,map,5.682880878448486,5.776207447052002,-0.7619247436523438,-0.0004034674634071511,0.012937601214479205,-0.7278558063310462,-0.6856080373500617
1658858738.779785,5283,1658858738,776859456,map,5.684892177581787,5.776153087615967,-0.7605406045913696,-0.00041390299207256424,0.012957239141320992,-0.7278440114599706,-0.6856201817478873
1658858738.8344836,5284,1658858738,826862528,map,5.687252998352051,5.776381492614746,-0.7590226531028748,-0.00042710720228311043,0.012965402381663615,-0.7278334975043295,-0.6856311806147198
1658858738.8784566,5285,1658858738,876862528,map,5.689199447631836,5.776578426361084,-0.7578486800193787,-0.0004255507022059235,0.012972799157048956,-0.7278319489868386,-0.6856326854975999
1658858738.9283469,5286,1658858738,926862784,map,5.690800666809082,5.776762962341309,-0.7559537887573242,-0.00042564739279080425,0.01299486656572199,-0.7278265414356754,-0.6856380078795363
1658858738.9784956,5287,1658858738,976862784,map,5.6937689781188965,5.779488563537598,-0.7524846196174622,-0.0004365952939570473,0.012986766853372588,-0.7278221645074814,-0.6856428006789616
1658858739.028424,5288,1658858739,26862784,map,5.696256160736084,5.781898021697998,-0.7495503425598145,-0.0004468770532587409,0.012969943526523703,-0.7278148482997415,-0.6856508786986585
1658858739.0783865,5289,1658858739,76862784,map,5.698344707489014,5.784056186676025,-0.7469925880432129,-0.00043884022893748173,0.012965355508373699,-0.72781437491922,-0.6856514731528986
1658858739.1283238,5290,1658858739,126862528,map,5.70008659362793,5.786005973815918,-0.7458673715591431,-0.0004402483172994163,0.012956373424229038,-0.7278106741661614,-0.6856555703404651
1658858739.1782196,5291,1658858739,176862528,map,5.701277732849121,5.788626670837402,-0.743699848651886,-0.00043786935824614295,0.012950213710101573,-0.7278101535595879,-0.6856562408458462
1658858739.2284462,5292,1658858739,226862528,map,5.701958656311035,5.791743755340576,-0.7407194972038269,-0.0004262943260695571,0.012943501359979646,-0.7278031652961554,-0.6856637927079049
1658858739.2853096,5293,1658858739,276862528,map,5.70242166519165,5.794549942016602,-0.7381348013877869,-0.0004189578623326175,0.012942928006265552,-0.7278083254199922,-0.6856583307583164
1658858739.3405914,5294,1658858739,326863296,map,5.702694892883301,5.79709529876709,-0.7350083589553833,-0.0004187081718414811,0.012944669500593715,-0.7278027840920187,-0.6856641799619502
1658858739.378179,5295,1658858739,376863296,map,5.704044342041016,5.801774501800537,-0.7312887907028198,-0.00040837978423994127,0.01293251662086771,-0.7277978753653235,-0.6856696258793471
1658858739.4284244,5296,1658858739,426862784,map,5.706259250640869,5.808180332183838,-0.7276371121406555,-0.0003954487265464082,0.012916479823515598,-0.727788967104342,-0.6856793912102567
1658858739.478238,5297,1658858739,476862784,map,5.708065032958984,5.813924789428711,-0.7244554758071899,-0.000376356985187724,0.012899699810671602,-0.7277789270272836,-0.6856903743492612
1658858739.5283186,5298,1658858739,526862272,map,5.709522724151611,5.819116115570068,-0.7213708162307739,-0.0003653095137498247,0.012883382597460446,-0.7277662118108804,-0.6857041825366439
1658858739.5783198,5299,1658858739,576862272,map,5.711095809936523,5.823847770690918,-0.7182431221008301,-0.0003544018839992344,0.01284823973736756,-0.7277564883399849,-0.6857151674084578
1658858739.6284444,5300,1658858739,626862016,map,5.712730884552002,5.828132152557373,-0.7151447534561157,-0.00035173468940767405,0.01284365321386885,-0.7277499760709895,-0.6857221661748325
1658858739.6784623,5301,1658858739,676862016,map,5.714049339294434,5.832041263580322,-0.7123372554779053,-0.00034211534148201464,0.012825823997967679,-0.7277445813432297,-0.6857282300747384
1658858739.7284477,5302,1658858739,726861504,map,5.715085983276367,5.835620403289795,-0.7102641463279724,-0.0003518705952914319,0.012797726719993338,-0.727739652742179,-0.6857339806401439
1658858739.7772434,5303,1658858739,774861504,map,5.716485023498535,5.839170932769775,-0.7081093192100525,-0.00034039613610421495,0.012795226223372456,-0.7277393465074987,-0.6857343580871544
1658858739.8333359,5304,1658858739,826861504,map,5.718106269836426,5.842836380004883,-0.7055943608283997,-0.0003445622143810157,0.01280490630216056,-0.7277337240313957,-0.685740142152164
1658858739.8902402,5305,1658858739,876861504,map,5.71941614151001,5.84609842300415,-0.7033168077468872,-0.00036150801959116855,0.012818947744443037,-0.727719405115668,-0.685755066557131
1658858739.9284,5306,1658858739,926861248,map,5.720448017120361,5.849081516265869,-0.7020017504692078,-0.0003542292787973166,0.012812605126033636,-0.7277104242653344,-0.6857647191909695
1658858739.9782128,5307,1658858739,976861248,map,5.7213215827941895,5.852576732635498,-0.7009803652763367,-0.0003466623073458361,0.012820633415857097,-0.7277068327721004,-0.6857683841654257
1658858740.0284238,5308,1658858740,26860992,map,5.722021579742432,5.856453895568848,-0.7005419135093689,-0.0003407418384717867,0.012816870083130639,-0.7277019620888655,-0.6857736259935103
1658858740.0782294,5309,1658858740,76860992,map,5.722487926483154,5.859968185424805,-0.7001938819885254,-0.0003398600421230451,0.012820675792211645,-0.7276969553259496,-0.6857788681322322
1658858740.1281486,5310,1658858740,126862016,map,5.722748756408691,5.8631672859191895,-0.6990417838096619,-0.0003493175415570367,0.012825982456049045,-0.7276953876253909,-0.6857804276734825
1658858740.178215,5311,1658858740,176862016,map,5.72355318069458,5.866549968719482,-0.6980085968971252,-0.00034612665517359424,0.012819243107207254,-0.7276837826208712,-0.6857928693950364
1658858740.2283247,5312,1658858740,226861248,map,5.724788188934326,5.87002420425415,-0.6969121098518372,-0.00033549378255087796,0.012822100531890524,-0.7276944831357253,-0.6857814669380485
1658858740.2781425,5313,1658858740,276861248,map,5.725741863250732,5.873200416564941,-0.6957483887672424,-0.00033682243066615044,0.012825116271187813,-0.7276955032951482,-0.6857803273842883
1658858740.33816,5314,1658858740,326867392,map,5.7264533042907715,5.87612771987915,-0.6947086453437805,-0.00032533492332372877,0.012817457842210403,-0.7276902092185948,-0.6857860937194983
1658858740.3860397,5315,1658858740,376867392,map,5.726926326751709,5.878131866455078,-0.6930346488952637,-0.0003239271457845645,0.0128222520788262,-0.7276782535837303,-0.6857986907133634
1658858740.428487,5316,1658858740,426867904,map,5.727156639099121,5.8793044090271,-0.6917266845703125,-0.0003336119103633123,0.012834501790303857,-0.7276767743849365,-0.685800026456417
1658858740.4780242,5317,1658858740,476867904,map,5.727206707000732,5.880407333374023,-0.6907414793968201,-0.0003290471052886852,0.012851949609975755,-0.7276621133731371,-0.6858152578359314
1658858740.5283718,5318,1658858740,526867136,map,5.7271037101745605,5.881459712982178,-0.6887447237968445,-0.0003421408395631464,0.012860831637692041,-0.7276594117520458,-0.68581795138207
1658858740.5781708,5319,1658858740,576867136,map,5.727508544921875,5.883133411407471,-0.6874734163284302,-0.0003445960336074454,0.012864122384524786,-0.72763823294163,-0.6858403586625913
1658858740.6281135,5320,1658858740,626866368,map,5.728311061859131,5.885260581970215,-0.6870246529579163,-0.0003531990042143145,0.0128697636163374,-0.727624512746636,-0.6858548045214408
1658858740.6781754,5321,1658858740,676866368,map,5.72883415222168,5.8872528076171875,-0.6864815354347229,-0.0003581070971162503,0.012867712687886222,-0.7276111411433706,-0.6858690261365731
1658858740.7282143,5322,1658858740,726865856,map,5.7291646003723145,5.889065742492676,-0.6853039264678955,-0.0003512657434550002,0.01286013797462168,-0.7276015374922319,-0.6858793597292394
1658858740.7761457,5323,1658858740,774865856,map,5.72939920425415,5.89116096496582,-0.6839934587478638,-0.0003525972568902566,0.0128703090705286,-0.727592407589565,-0.6858888534140383
1658858740.833044,5324,1658858740,826865600,map,5.729579448699951,5.894495964050293,-0.6829033493995667,-0.00035255600815184033,0.012881423311868319,-0.7275849588886526,-0.6858965463076188
1658858740.8889427,5325,1658858740,876865600,map,5.729605674743652,5.89749002456665,-0.6820052266120911,-0.00035214293390495186,0.012880461097162399,-0.7275806724420121,-0.6859011115358453
1658858740.9300344,5326,1658858740,926870720,map,5.7294769287109375,5.900247097015381,-0.6817434430122375,-0.0003393068165250652,0.012881447706727538,-0.7275757042938931,-0.6859063694828241
1658858740.978189,5327,1658858740,976870720,map,5.729947566986084,5.902589321136475,-0.681097149848938,-0.00033276018199201795,0.012880521794920559,-0.7275717219278462,-0.6859106143513896
1658858741.0282207,5328,1658858741,26869952,map,5.73089599609375,5.9045281410217285,-0.6808199882507324,-0.0003351294398071356,0.012888300231333949,-0.7275782071813888,-0.6859035878606569
1658858741.078113,5329,1658858741,76869952,map,5.731586456298828,5.906311988830566,-0.6807094812393188,-0.0003468960427177415,0.012887232941286467,-0.7275769478209959,-0.6859049379394614
1658858741.1280284,5330,1658858741,126869184,map,5.732054233551025,5.907989501953125,-0.6808305978775024,-0.0003407910748661754,0.01288032206041035,-0.7275732479986974,-0.6859089953934773
1658858741.178256,5331,1658858741,176869184,map,5.73270845413208,5.90877103805542,-0.6805126070976257,-0.0003521683019109168,0.012891499413938015,-0.7275693357566707,-0.6859129295230879
1658858741.2279713,5332,1658858741,226867904,map,5.733479976654053,5.908768653869629,-0.6801671385765076,-0.00036569561528897485,0.012896807215255804,-0.7275584191956591,-0.685924402021012
1658858741.2787445,5333,1658858741,276867904,map,5.73401403427124,5.908808708190918,-0.6798651218414307,-0.00038336753790387895,0.012911185542874834,-0.7275467635451432,-0.6859364847944711
1658858741.3288057,5334,1658858741,326867136,map,5.734333038330078,5.908884525299072,-0.679669976234436,-0.0004088278495452537,0.012918650921489694,-0.7275436825375522,-0.6859395974266653
1658858741.379717,5335,1658858741,376867136,map,5.734737396240234,5.908524990081787,-0.6802495718002319,-0.0004314785498004243,0.012935500112609195,-0.7275377162996526,-0.6859455940703926
1658858741.4348423,5336,1658858741,426870976,map,5.735194206237793,5.907762050628662,-0.6809308528900146,-0.0004499920137343273,0.01295679967926099,-0.7275232554190977,-0.6859605175763819
1658858741.4780977,5337,1658858741,476870976,map,5.735445499420166,5.9070844650268555,-0.6812642812728882,-0.0004652818157152065,0.012972230967608099,-0.7275139780926988,-0.6859700550434333
1658858741.5285752,5338,1658858741,526869184,map,5.735520362854004,5.906478404998779,-0.6817383170127869,-0.00048429019089957535,0.012994765234470988,-0.7275012047595311,-0.685983162047687
1658858741.5779073,5339,1658858741,576869184,map,5.734897136688232,5.907163619995117,-0.6818575859069824,-0.000487529470916901,0.013000533798101578,-0.7274876856659005,-0.6859973874880659
1658858741.628307,5340,1658858741,626868160,map,5.733650207519531,5.908904075622559,-0.681340217590332,-0.0004929798392666274,0.01302033285840043,-0.7274727951542018,-0.6860127988701576
1658858741.6780853,5341,1658858741,676868160,map,5.732356548309326,5.910442352294922,-0.6807224750518799,-0.0004905974422184904,0.013042435455134333,-0.7274571934193751,-0.6860289249980311
1658858741.7286682,5342,1658858741,726866880,map,5.731021881103516,5.9118146896362305,-0.6795873641967773,-0.0004832743548299833,0.013047818259623227,-0.7274486388626263,-0.6860378988813036
1658858741.7790627,5343,1658858741,776866880,map,5.729725360870361,5.913427352905273,-0.6782971024513245,-0.0004764961347148863,0.013054782444294644,-0.7274387307989354,-0.6860482771207869
1658858741.828615,5344,1658858741,826865856,map,5.728429317474365,5.915207862854004,-0.676938533782959,-0.00046248525935275363,0.013063886391193283,-0.7274323087685121,-0.6860549228301294
1658858741.8847356,5345,1658858741,876865856,map,5.727074146270752,5.916796684265137,-0.6756486892700195,-0.00045116451175630144,0.013075219942841554,-0.727425606183756,-0.6860618212247529
1658858741.9408526,5346,1658858741,926866368,map,5.725676536560059,5.918228626251221,-0.6739305257797241,-0.00043370773351181707,0.013081192499233042,-0.7274147772915955,-0.6860732002331954
1658858741.9785879,5347,1658858741,976866368,map,5.724729537963867,5.922100067138672,-0.6737475395202637,-0.00042563664617763106,0.013072171619209844,-0.727405136619846,-0.6860835986828914
1658858742.0287044,5348,1658858742,26866880,map,5.724126815795898,5.92795991897583,-0.6749227643013,-0.0003949270665616141,0.013064485755122101,-0.7273995765471709,-0.6860896583417964
1658858742.078528,5349,1658858742,76866880,map,5.72337007522583,5.933188438415527,-0.6758604049682617,-0.000379753407054428,0.013051752882428607,-0.7273906211510119,-0.6860994037277622
1658858742.1285625,5350,1658858742,126866880,map,5.722497940063477,5.93790864944458,-0.676853358745575,-0.0003566631957668799,0.013043008511864448,-0.7273929904514649,-0.6860970705099966
1658858742.1784418,5351,1658858742,176866880,map,5.722696781158447,5.94402551651001,-0.6781107783317566,-0.0003458911681881263,0.013025441582802492,-0.7273852738983216,-0.6861055906686204
1658858742.2285242,5352,1658858742,226866624,map,5.723778247833252,5.9512434005737305,-0.6796817779541016,-0.00033464506112365844,0.012982234219521233,-0.7273819668330634,-0.6861099211740175
1658858742.278451,5353,1658858742,276866624,map,5.724520683288574,5.957760810852051,-0.6810404062271118,-0.00032047549180215566,0.012952818257683876,-0.727379242021646,-0.6861133726073688
1658858742.3285265,5354,1658858742,326870976,map,5.724973201751709,5.963724613189697,-0.6826716065406799,-0.00029856769773883293,0.012923890785058062,-0.727376035702446,-0.6861173271315186
1658858742.3765733,5355,1658858742,374870976,map,5.72559118270874,5.969202041625977,-0.6845489144325256,-0.00029367188937983905,0.012884419795099451,-0.7273681215442349,-0.6861264615539734
1658858742.4346585,5356,1658858742,426870976,map,5.726790428161621,5.974671840667725,-0.6875389814376831,-0.00028498479879757486,0.012842115759578953,-0.7273653117966539,-0.6861302369386139
1658858742.484648,5357,1658858742,474870976,map,5.7277607917785645,5.979528903961182,-0.6902363896369934,-0.0002690517856638142,0.012816084463517528,-0.7273583183382982,-0.6861381437686169
1658858742.528576,5358,1658858742,526870720,map,5.728360652923584,5.9841437339782715,-0.6925379633903503,-0.0002572627443488984,0.01278291330221375,-0.7273568887401026,-0.6861402825557661
1658858742.5785372,5359,1658858742,576870720,map,5.729546070098877,5.987700462341309,-0.6946473121643066,-0.0002593046581054397,0.012778526372235794,-0.7273484474542526,-0.6861493117468941
1658858742.628546,5360,1658858742,626875328,map,5.7311296463012695,5.990406036376953,-0.6962581872940063,-0.00027360971342117263,0.01277200341626158,-0.7273451389493698,-0.6861529347843536
1658858742.678365,5361,1658858742,676875328,map,5.732364654541016,5.992894172668457,-0.6975237131118774,-0.00028763227562171204,0.012770158595244909,-0.7273371347941914,-0.6861614479599554
1658858742.7285242,5362,1658858742,726875072,map,5.733303070068359,5.995195388793945,-0.6990072727203369,-0.00030653584324585745,0.012769354831198506,-0.7273379343580509,-0.6861606071880952
1658858742.7783194,5363,1658858742,776875072,map,5.735133647918701,5.998139381408691,-0.6992099285125732,-0.000324098075841509,0.012761200819588137,-0.7273311144074918,-0.6861679799646987
1658858742.8286693,5364,1658858742,826875072,map,5.737695217132568,6.00158166885376,-0.6984800696372986,-0.0003340075360477144,0.012752447503296828,-0.7273301372356303,-0.6861691737395674
1658858742.8784335,5365,1658858742,876875072,map,5.739833831787109,6.004705905914307,-0.6978620886802673,-0.0003480810821803733,0.01274103320510861,-0.7273273396895807,-0.6861723441326558
1658858742.9386,5366,1658858742,926881216,map,5.741613388061523,6.007575511932373,-0.6977673172950745,-0.00036457988305091355,0.012747371781717134,-0.7273204083623677,-0.6861795648179608
1658858742.9818158,5367,1658858742,976881216,map,5.743163585662842,6.010576248168945,-0.6975249648094177,-0.00038568695489398175,0.01275326386507623,-0.727320022634399,-0.6861798526490396
1658858743.0282602,5368,1658858743,26881472,map,5.744476795196533,6.013638496398926,-0.6968284845352173,-0.00039026421433406875,0.012741806290680856,-0.7273188156967997,-0.686181342211881
1658858743.0783052,5369,1658858743,76881472,map,5.745510578155518,6.016440391540527,-0.6961013078689575,-0.0003907162346432499,0.012730334206437795,-0.7273131427022673,-0.6861875679319522
1658858743.128343,5370,1658858743,126881472,map,5.746284008026123,6.019068241119385,-0.6962119340896606,-0.0003989742256267121,0.012731933965854075,-0.7273072058831458,-0.6861938260779589
1658858743.178248,5371,1658858743,176881472,map,5.746559143066406,6.022161483764648,-0.6964513063430786,-0.0003998881157543399,0.01272770629918276,-0.7273003373535366,-0.6862011839594044
1658858743.2284274,5372,1658858743,226881728,map,5.746397972106934,6.025598049163818,-0.6977127194404602,-0.00040269789188170573,0.01274019762538921,-0.7272932690046681,-0.6862084421364819
1658858743.2784183,5373,1658858743,276881728,map,5.746098041534424,6.028756618499756,-0.6990671157836914,-0.000395642057775533,0.012741586534813911,-0.7272877464640317,-0.6862142735933202
1658858743.3283145,5374,1658858743,326881728,map,5.745673179626465,6.031685829162598,-0.7008361220359802,-0.0004007245052758762,0.012741124836544451,-0.7272736370927643,-0.6862292327988022
1658858743.3782787,5375,1658858743,376881728,map,5.745245933532715,6.032865524291992,-0.701515257358551,-0.0003958550343414135,0.012749960104360508,-0.7272625453307094,-0.6862408265144435
1658858743.4335148,5376,1658858743,426881472,map,5.744797706604004,6.032545566558838,-0.7014764547348022,-0.00040461772061081664,0.012781856535620443,-0.7272580254886796,-0.6862450180440728
1658858743.4892888,5377,1658858743,476881472,map,5.744202613830566,6.032340049743652,-0.7014619708061218,-0.0004083185228377974,0.012809846222649298,-0.7272473308316159,-0.6862558275993188
1658858743.5304503,5378,1658858743,526885568,map,5.743499279022217,6.032238006591797,-0.7011677026748657,-0.0004298204015218571,0.01282639833063652,-0.7272375168799114,-0.6862659053185046
1658858743.57844,5379,1658858743,576885568,map,5.743004322052002,6.033044815063477,-0.7013120651245117,-0.00043650851047947553,0.012843969311432096,-0.727238543003043,-0.6862644850809773
1658858743.6284761,5380,1658858743,626885312,map,5.742665767669678,6.0345587730407715,-0.701633095741272,-0.0004402694522319573,0.012868257312927539,-0.7272391834369569,-0.686263349007133
1658858743.6782305,5381,1658858743,676885312,map,5.7421722412109375,6.035974025726318,-0.7017781734466553,-0.00044342196818617435,0.012881627352405297,-0.7272432895375572,-0.6862587448450506
1658858743.7283375,5382,1658858743,726884544,map,5.741534233093262,6.03731632232666,-0.7011311650276184,-0.0004392298071635632,0.012887198229434531,-0.7272351295500934,-0.686267290162682
1658858743.7782068,5383,1658858743,776884544,map,5.741954803466797,6.038331985473633,-0.7007262110710144,-0.0004451498945658539,0.012901733251001298,-0.7272411836643317,-0.6862605976618454
1658858743.828454,5384,1658858743,826884032,map,5.743222236633301,6.039078235626221,-0.7007939219474792,-0.0004671311886434789,0.012917601475749375,-0.7272458188497279,-0.6862553725299022
1658858743.878165,5385,1658858743,876884032,map,5.744168758392334,6.039789199829102,-0.7008433938026428,-0.0004690518296603954,0.012925321469739086,-0.7272426882077118,-0.6862585434832167
1658858743.9287612,5386,1658858743,926883776,map,5.744856357574463,6.040482044219971,-0.700957715511322,-0.00047838385994324967,0.012924403627443584,-0.7272357884368723,-0.6862658660871587
1658858743.9793808,5387,1658858743,976883776,map,5.745880126953125,6.042181015014648,-0.7005816698074341,-0.0004963217353612299,0.012931392036091376,-0.7272364832058821,-0.6862649854532028
1658858744.0352747,5388,1658858744,26886336,map,5.747151851654053,6.044673919677734,-0.6999598145484924,-0.0004931379796882869,0.012928741133400291,-0.7272283409406131,-0.686273665967449
1658858744.0781882,5389,1658858744,76886336,map,5.74812126159668,6.046950817108154,-0.6994472146034241,-0.0005152303759580587,0.012933544268512329,-0.7272306265105573,-0.6862711372594482
1658858744.1282456,5390,1658858744,126885824,map,5.748822212219238,6.04905366897583,-0.6987859606742859,-0.0005181602124692511,0.012924044996782916,-0.7272298936120369,-0.686272090652054
1658858744.1781344,5391,1658858744,176885824,map,5.7501912117004395,6.049075126647949,-0.6977573037147522,-0.0005338844677625705,0.012926588265082185,-0.7272250885779271,-0.6862771224702351
1658858744.2282991,5392,1658858744,226884800,map,5.752077579498291,6.047322750091553,-0.6962440609931946,-0.0005527647652481273,0.012927158785591548,-0.7272229191873899,-0.68627939560023
1658858744.2784173,5393,1658858744,276884800,map,5.753568172454834,6.045798301696777,-0.6948168873786926,-0.0005726567374297648,0.01293922953281141,-0.7272134391692862,-0.6862891972739605
1658858744.3281174,5394,1658858744,326884288,map,5.7547221183776855,6.044458866119385,-0.693109393119812,-0.0006027219727059636,0.012953500926074274,-0.7272113438199191,-0.6862911226000299
1658858744.3781514,5395,1658858744,376884288,map,5.756491184234619,6.0441436767578125,-0.6908637881278992,-0.0006227802692441576,0.012958437832221914,-0.7272041043570218,-0.6862986825282316
1658858744.428614,5396,1658858744,426884800,map,5.758747100830078,6.044650077819824,-0.6889430284500122,-0.0006485854334040337,0.012964750873757685,-0.7271991182294977,-0.6863038226747377
1658858744.486301,5397,1658858744,476884800,map,5.760601043701172,6.045083045959473,-0.6874066591262817,-0.00066341290769324,0.012973754096932796,-0.7271924906510252,-0.6863106608007082
1658858744.5348248,5398,1658858744,526885312,map,5.762113571166992,6.045474052429199,-0.6865051984786987,-0.0006837855694444427,0.01296308291359356,-0.7271853171639899,-0.6863184431586972
1658858744.580403,5399,1658858744,576885312,map,5.764015197753906,6.047121047973633,-0.6859381198883057,-0.0006921122489307549,0.01296369554636282,-0.7271758913372517,-0.6863284101917168
1658858744.6279938,5400,1658858744,626886080,map,5.766201496124268,6.049783706665039,-0.685441792011261,-0.000699032710320143,0.01294874942543923,-0.7271810359744996,-0.6863232344607317
1658858744.6783178,5401,1658858744,676886080,map,5.767999172210693,6.0521674156188965,-0.6849347949028015,-0.0007024080011203905,0.012933159480255965,-0.7271686559684466,-0.686336641733414
1658858744.7280674,5402,1658858744,726885312,map,5.769463539123535,6.0543131828308105,-0.6847679615020752,-0.0006975534642717396,0.012929128360127436,-0.727164847316827,-0.6863407578497049
1658858744.7768562,5403,1658858744,774885312,map,5.770717620849609,6.056926250457764,-0.6845658421516418,-0.0007095132896712364,0.012914711588111598,-0.727160323174703,-0.6863458102268484
1658858744.830161,5404,1658858744,826884544,map,5.77177095413208,6.061370849609375,-0.6842377185821533,-0.0007083709596053677,0.01291673577560756,-0.7271525319370972,-0.6863540277764497
1658858744.8780558,5405,1658858744,876884544,map,5.772588729858398,6.0653076171875,-0.68399578332901,-0.0007024647369251219,0.012906426818530728,-0.727149648852822,-0.6863572822250005
1658858744.9289346,5406,1658858744,926883520,map,5.773177623748779,6.068873882293701,-0.6841382384300232,-0.0007019097682244321,0.012904601525796179,-0.7271474720748238,-0.6863596232568836
1658858744.9850297,5407,1658858744,976883520,map,5.775434970855713,6.0706868171691895,-0.6859006285667419,-0.000711566461310141,0.012897837398593529,-0.7271388981865884,-0.6863688237439147
1658858745.0351639,5408,1658858745,26887360,map,5.777298927307129,6.072320461273193,-0.6879568696022034,-0.0007281032138429237,0.012900734680559252,-0.7271304151379657,-0.6863777387792391
1658858745.0947597,5409,1658858745,76887360,map,5.778818607330322,6.073802471160889,-0.6898616552352905,-0.000730320404008685,0.012894982884781803,-0.727116088694844,-0.6863930212419268
1658858745.1281743,5410,1658858745,126886336,map,5.780046463012695,6.075139045715332,-0.6918909549713135,-0.0007286576704254757,0.012911735608872505,-0.727102163781137,-0.686407458851049
1658858745.175881,5411,1658858745,174886336,map,5.7809739112854,6.077213287353516,-0.6926712393760681,-0.0007349423581490904,0.012910689603955102,-0.7270990381482461,-0.6864107827515357
1658858745.2285612,5412,1658858745,226885568,map,5.781591892242432,6.079975128173828,-0.6926414370536804,-0.0007357488538238233,0.012909027652985947,-0.7270812656056702,-0.6864296386986325
1658858745.2779205,5413,1658858745,276885568,map,5.78202486038208,6.082396030426025,-0.6926661729812622,-0.0007373377510769123,0.012902446998913924,-0.7270698317206543,-0.6864418715347868
1658858745.3281608,5414,1658858745,326884544,map,5.782286167144775,6.084547996520996,-0.6926971077919006,-0.0007454063590462876,0.01291020450630416,-0.7270636942027866,-0.6864482176837249
1658858745.3780587,5415,1658858745,376884544,map,5.78379487991333,6.085406303405762,-0.6922546625137329,-0.0007632721647724363,0.012913807091941872,-0.7270592625024432,-0.6864528241703124
1658858745.4301572,5416,1658858745,426884800,map,5.786314010620117,6.085161209106445,-0.690662682056427,-0.000773789802008712,0.012911516939609312,-0.7270522202478191,-0.6864603142297282
1658858745.4779258,5417,1658858745,476884800,map,5.788450241088867,6.08492374420166,-0.6890108585357666,-0.0007908765248124893,0.012909385981862786,-0.7270576213561708,-0.686454614301485
1658858745.5385814,5418,1658858745,526890944,map,5.790262699127197,6.08469295501709,-0.687795877456665,-0.0008209335983686097,0.012913197446022758,-0.7270587270205915,-0.6864533362603348
1658858745.580947,5419,1658858745,576890944,map,5.7916259765625,6.084682464599609,-0.6881102323532104,-0.0008546903552320863,0.012934429175346634,-0.7270518965110844,-0.6864601298152285
1658858745.6279595,5420,1658858745,626890688,map,5.792582988739014,6.08482027053833,-0.689204216003418,-0.0008867768917629345,0.012939573636794263,-0.7270519010933644,-0.6864599873097972
1658858745.6786537,5421,1658858745,676890688,map,5.793331623077393,6.084872245788574,-0.690004825592041,-0.0009068039718717236,0.01295032682328788,-0.7270454700229793,-0.6864665696600176
1658858745.728004,5422,1658858745,726890688,map,5.793911457061768,6.084865093231201,-0.6908279061317444,-0.0009222724227368633,0.012959104185729046,-0.7270360202296209,-0.6864763916705047
1658858745.7786121,5423,1658858745,776890688,map,5.795319080352783,6.08812141418457,-0.6894116997718811,-0.0009176196826064611,0.012961673996573345,-0.7270301424447497,-0.6864825744023597
1658858745.8287272,5424,1658858745,826889408,map,5.796452045440674,6.090943336486816,-0.6886460781097412,-0.0009264467945483156,0.012960306984494095,-0.7270185357540244,-0.6864948803955343
1658858745.8785903,5425,1658858745,876889408,map,5.797361850738525,6.093408107757568,-0.6881020069122314,-0.0009176973072949437,0.012953737907249914,-0.7270183503294212,-0.6864952125034592
1658858745.9286149,5426,1658858745,926889152,map,5.798092365264893,6.095586776733398,-0.6873261332511902,-0.0009121752814361494,0.012936566111184301,-0.727011155735854,-0.6865031628689884
1658858745.978606,5427,1658858745,976889152,map,5.800457000732422,6.097031593322754,-0.6867488622665405,-0.0009136460168882791,0.012934104477258842,-0.7270011071935405,-0.6865138486088197
1658858746.0336695,5428,1658858746,26889920,map,5.802477836608887,6.098275661468506,-0.6863349676132202,-0.0009188915367061346,0.012933254474840866,-0.7270049624033981,-0.6865097750271779
1658858746.0889099,5429,1658858746,76889920,map,5.804199695587158,6.099336624145508,-0.6859853863716125,-0.0009125609383107132,0.012924366452394455,-0.7270003640558248,-0.6865148204132496
1658858746.1330824,5430,1658858746,126896320,map,5.8056769371032715,6.10023832321167,-0.6860690116882324,-0.0009280596287015836,0.012918275624786294,-0.7269962267394916,-0.686519295553118
1658858746.178511,5431,1658858746,176896320,map,5.80701208114624,6.1024627685546875,-0.6867603063583374,-0.0009283180732659034,0.012917980268968277,-0.7269865941890786,-0.6865295011000543
1658858746.228569,5432,1658858746,226896576,map,5.808208465576172,6.105743885040283,-0.6876879930496216,-0.0009258139041729767,0.012909324225630528,-0.726973821741431,-0.6865431921731587
1658858746.2786095,5433,1658858746,276896576,map,5.809215545654297,6.1085991859436035,-0.6884410381317139,-0.000923513933185975,0.012895302571370199,-0.726964154494866,-0.6865536951857244
1658858746.3285286,5434,1658858746,326896576,map,5.810051441192627,6.111106872558594,-0.6900449991226196,-0.0009222372724667937,0.012887402984449087,-0.7269554372876049,-0.6865630754131165
1658858746.3782897,5435,1658858746,376896576,map,5.810579776763916,6.113316535949707,-0.6912654638290405,-0.0009180540550671628,0.012899322774606571,-0.7269479737099157,-0.6865707597675248
1658858746.4285336,5436,1658858746,426897344,map,5.810824871063232,6.1152215003967285,-0.6920198798179626,-0.0009282159170354641,0.012913172009788204,-0.7269445423865208,-0.6865741188672269
1658858746.4784844,5437,1658858746,476897344,map,5.810951232910156,6.116865158081055,-0.6926923990249634,-0.0009212196276639256,0.012910093311679513,-0.7269373067346067,-0.6865818472130749
1658858746.5285792,5438,1658858746,526897600,map,5.810998439788818,6.1182732582092285,-0.6931649446487427,-0.0009194642055091787,0.01291685215665191,-0.7269334703809407,-0.6865857842657829
1658858746.5926628,5439,1658858746,576897600,map,5.811728477478027,6.119526386260986,-0.692573070526123,-0.0009309075485297341,0.012915416326893255,-0.7269306244834862,-0.6865888089827039
1658858746.634546,5440,1658858746,626900416,map,5.813014507293701,6.120599746704102,-0.6907138824462891,-0.0009364929459877362,0.01292406086361396,-0.7269278570254383,-0.6865915687744496
1658858746.6783307,5441,1658858746,676900416,map,5.814101696014404,6.121461868286133,-0.6889523863792419,-0.0009425562351961666,0.012929368934691854,-0.7269231744148494,-0.6865964182147565
1658858746.7283127,5442,1658858746,726900416,map,5.8150129318237305,6.122137546539307,-0.686570405960083,-0.0009486547407773029,0.0129343040762868,-0.7269151747331905,-0.6866047863034892
1658858746.7782161,5443,1658858746,776900416,map,5.815698623657227,6.122979164123535,-0.6846228837966919,-0.0009515664380318942,0.012938036959982375,-0.7269054248514232,-0.6866150340929831
1658858746.8284495,5444,1658858746,826900160,map,5.816170692443848,6.1239094734191895,-0.6829265356063843,-0.0009532976054244277,0.012951370062592725,-0.7268961926759688,-0.6866245541126228
1658858746.878164,5445,1658858746,876900160,map,5.8165435791015625,6.1246185302734375,-0.6813422441482544,-0.0009554699737269567,0.012951098384000638,-0.7268847705094298,-0.6866366481110886
1658858746.9285192,5446,1658858746,926899904,map,5.8168182373046875,6.125148296356201,-0.6801729202270508,-0.0009686168827559342,0.012966193625118687,-0.7268847690295454,-0.6866363463705332
1658858746.9783285,5447,1658858746,976899904,map,5.816705226898193,6.126030445098877,-0.6788436770439148,-0.000970633331861159,0.012980111616716205,-0.7268748242643179,-0.686646608106433
1658858747.028609,5448,1658858747,26899136,map,5.816262245178223,6.127157211303711,-0.6781049370765686,-0.0009733537896327552,0.012998420791177263,-0.7268709113869439,-0.6866503999990454
1658858747.0862403,5449,1658858747,76899136,map,5.815814018249512,6.1280364990234375,-0.6776677966117859,-0.0009862640341441876,0.013003248927871318,-0.7268663057764242,-0.6866551655143279
1658858747.1302912,5450,1658858747,126901696,map,5.815349578857422,6.128721237182617,-0.6774555444717407,-0.0009850664859357432,0.013005464103018944,-0.7268625284782433,-0.6866591237591605
1658858747.1784067,5451,1658858747,176901696,map,5.815232276916504,6.130354881286621,-0.6760097146034241,-0.0009996247861642003,0.013022850160843412,-0.7268579014574104,-0.6866636711031863
1658858747.228522,5452,1658858747,226901696,map,5.815394878387451,6.132737159729004,-0.6747270822525024,-0.001001593891040734,0.013013820966829737,-0.7268518495904973,-0.6866702454747793
1658858747.2785006,5453,1658858747,276901696,map,5.81547737121582,6.134735584259033,-0.6739230751991272,-0.00100242568500384,0.013009415386583515,-0.726837816350108,-0.6866851818537023
1658858747.3286445,5454,1658858747,326901696,map,5.815515518188477,6.13641357421875,-0.6733750700950623,-0.0010008194497543627,0.01301155691946718,-0.726836574218792,-0.6866864583817356
1658858747.378452,5455,1658858747,376901696,map,5.816008567810059,6.138903617858887,-0.6724514961242676,-0.0009947493590596657,0.013007186588981215,-0.7268390626273548,-0.6866839160849336
1658858747.4283428,5456,1658858747,426901440,map,5.8168864250183105,6.14201545715332,-0.6706915497779846,-0.0010024286964922156,0.012993459968930032,-0.7268470235399354,-0.6866757382534213
1658858747.4784029,5457,1658858747,476901440,map,5.817646503448486,6.1446733474731445,-0.6689572930335999,-0.001004841178877104,0.012977154423223107,-0.7268428467035712,-0.6866804642285448
1658858747.5285628,5458,1658858747,526901184,map,5.818312168121338,6.146963119506836,-0.6673510074615479,-0.0010015145877141141,0.012969363170541294,-0.7268416563353032,-0.6866818762740385
1658858747.5852275,5459,1658858747,576901184,map,5.81795072555542,6.150902271270752,-0.6669839024543762,-0.0009972161447330693,0.01296184641647287,-0.7268363492881987,-0.686687641836403
1658858747.6353009,5460,1658858747,626904000,map,5.816720962524414,6.156147480010986,-0.6678430438041687,-0.000979533086182207,0.012943050584246014,-0.7268340841640826,-0.6866904193695044
1658858747.6912167,5461,1658858747,676904000,map,5.815601348876953,6.160727024078369,-0.6686167120933533,-0.0009667452694801936,0.012934755640290369,-0.7268401829295968,-0.6866841384355546
1658858747.7283082,5462,1658858747,726903488,map,5.814555644989014,6.164754867553711,-0.6699783802032471,-0.0009463527184360777,0.012913072010328338,-0.7268420322281763,-0.6866826174982171
1658858747.778459,5463,1658858747,776903488,map,5.814614295959473,6.16930627822876,-0.6705450415611267,-0.0009211922121979336,0.012901050927850538,-0.7268415019596048,-0.6866834389432813
1658858747.8285136,5464,1658858747,826903232,map,5.815586090087891,6.174233913421631,-0.6705650687217712,-0.000914402585025256,0.012884439917381788,-0.7268364317338271,-0.6866891265924966
1658858747.8782582,5465,1658858747,876903232,map,5.816420555114746,6.17858362197876,-0.6706468462944031,-0.0008917414774097057,0.012858980317773987,-0.7268413269286421,-0.6866844521983408
1658858747.9285846,5466,1658858747,926902720,map,5.81714391708374,6.182425498962402,-0.670792818069458,-0.0008933038892570641,0.012835228161141457,-0.7268343984212257,-0.6866922281472738
1658858747.9781873,5467,1658858747,976902720,map,5.817178726196289,6.185547828674316,-0.6714878082275391,-0.0008905545858138345,0.012823777411644862,-0.726842068482149,-0.6866843271329391
1658858748.0284348,5468,1658858748,26901696,map,5.816636562347412,6.187999248504639,-0.6733000874519348,-0.0008937696745240343,0.012824181042284593,-0.726843914017948,-0.6866823619486915
1658858748.0782394,5469,1658858748,76901696,map,5.816143989562988,6.190131664276123,-0.6750391125679016,-0.0008898172668457215,0.012822538523533086,-0.7268470002721708,-0.6866791309821431
1658858748.1382582,5470,1658858748,126908608,map,5.815692901611328,6.191971302032471,-0.676575779914856,-0.0008941861074364499,0.01283270305967936,-0.7268372679463224,-0.6866892369097638
1658858748.1810741,5471,1658858748,176908608,map,5.813299179077148,6.195057392120361,-0.6797968149185181,-0.0008862379999569256,0.012831605761165689,-0.7268369097239473,-0.6866896468847771
1658858748.2282875,5472,1658858748,226908096,map,5.809269428253174,6.199137210845947,-0.6837260723114014,-0.0008589134562463538,0.012848718368460793,-0.7268314332747405,-0.6866951582090478
1658858748.2783222,5473,1658858748,276908096,map,5.8056159019470215,6.202693939208984,-0.6869688034057617,-0.0008382211421398057,0.0128597757438269,-0.726818759542518,-0.6867083910439794
1658858748.328327,5474,1658858748,326907840,map,5.802271842956543,6.2058281898498535,-0.689607560634613,-0.0008164680097944104,0.012869154503179686,-0.7268131643509483,-0.6867141635123916
1658858748.3781688,5475,1658858748,376907840,map,5.798938274383545,6.209287643432617,-0.694484293460846,-0.0007933749071848835,0.012886322349572196,-0.7268057456749973,-0.6867217204271105
1658858748.4282503,5476,1658858748,426907328,map,5.7956037521362305,6.21297550201416,-0.7009950280189514,-0.0007668628139615662,0.012889194981419647,-0.7268041878975926,-0.6867233453354241
1658858748.478097,5477,1658858748,476907328,map,5.792518615722656,6.216223239898682,-0.7066420912742615,-0.0007408826437361403,0.012902507717317872,-0.7267955703951278,-0.686732244212789
1658858748.528645,5478,1658858748,526906304,map,5.7896318435668945,6.219112396240234,-0.7114466428756714,-0.0007353985804337761,0.012909170274388867,-0.7267880454700546,-0.6867400887334104
1658858748.5781822,5479,1658858748,576906304,map,5.787557125091553,6.2212605476379395,-0.7156984806060791,-0.0007221302762728961,0.012916055374867078,-0.7267838782588751,-0.6867443835550501
1658858748.6471527,5480,1658858748,626904768,map,5.786133289337158,6.222780704498291,-0.719966471195221,-0.0007146108406162585,0.01291270647169706,-0.7267779877155222,-0.6867506883251728
1658858748.6897912,5481,1658858748,676904768,map,5.784752368927002,6.224096298217773,-0.7238872051239014,-0.0007232217941814888,0.012930896245684803,-0.7267815391858975,-0.6867465785652647
1658858748.7329443,5482,1658858748,726910912,map,5.783421993255615,6.225224494934082,-0.7275120615959167,-0.0007262304932127693,0.012939605711678941,-0.726790256712945,-0.6867371854941516
1658858748.7780955,5483,1658858748,776910912,map,5.781783103942871,6.226797103881836,-0.730904221534729,-0.0007321865914218209,0.012939002830679974,-0.7267782098794509,-0.6867499397546125
1658858748.8282712,5484,1658858748,826911680,map,5.7798967361450195,6.228691101074219,-0.7330554127693176,-0.0007366736189114149,0.012940938323253257,-0.7267698075653407,-0.686758790434262
1658858748.8781087,5485,1658858748,876911680,map,5.778108596801758,6.230325698852539,-0.7347356081008911,-0.0007388013568635494,0.012941864443401056,-0.7267604271145404,-0.6867686975230995
1658858748.9282277,5486,1658858748,926910656,map,5.776420593261719,6.231738567352295,-0.7356979250907898,-0.0007487126383781211,0.012947549688054852,-0.7267615162804297,-0.6867674270378812
1658858748.9787362,5487,1658858748,976910656,map,5.7762346267700195,6.232011795043945,-0.7362784743309021,-0.0007559825423170802,0.012944573148635343,-0.726754138611305,-0.6867752824088355
1658858749.028323,5488,1658858749,26909888,map,5.777299880981445,6.231300354003906,-0.7360963225364685,-0.0007773903993275023,0.012954039876335552,-0.7267486590176578,-0.6867808785421192
1658858749.0758674,5489,1658858749,74909888,map,5.77817440032959,6.230567455291748,-0.7358346581459045,-0.0007789037203703932,0.012957396569308086,-0.7267418884244505,-0.6867879780488325
1658858749.1299813,5490,1658858749,126908864,map,5.778784275054932,6.229881286621094,-0.734841525554657,-0.0008066795121687786,0.012958542176190774,-0.7267412013763637,-0.6867886513876537
1658858749.195152,5491,1658858749,174908864,map,5.780123233795166,6.229048252105713,-0.7329092621803284,-0.0008373607019338532,0.012960673873173258,-0.7267424339485283,-0.6867872701633142
1658858749.2478018,5492,1658858749,226915264,map,5.781903266906738,6.228135108947754,-0.7307822704315186,-0.0008752071767617327,0.012951211175203274,-0.726730871811603,-0.6867996360638527
1658858749.2781146,5493,1658858749,276915264,map,5.783451080322266,6.2271809577941895,-0.7290374040603638,-0.0009031659545863202,0.012953015891461637,-0.726720322201071,-0.6868107286367514
1658858749.3284836,5494,1658858749,326914240,map,5.784757614135742,6.226219177246094,-0.7274079918861389,-0.0009266274080716786,0.012949640468581356,-0.7267137127737622,-0.6868177544588921
1658858749.3767114,5495,1658858749,374914240,map,5.78610372543335,6.225261211395264,-0.7267316579818726,-0.0009516132171330355,0.012957396446507043,-0.7267131565956151,-0.6868181625004176
1658858749.4287589,5496,1658858749,426915520,map,5.7878265380859375,6.2242913246154785,-0.727861762046814,-0.0009783746552470044,0.012960952463974955,-0.726705942244503,-0.6868256911333396
1658858749.4779692,5497,1658858749,476915520,map,5.789319038391113,6.223304748535156,-0.728796124458313,-0.000996664302123877,0.01296374447259557,-0.7266941025108427,-0.6868381391313961
1658858749.5284393,5498,1658858749,526914496,map,5.790588855743408,6.222314357757568,-0.7289232015609741,-0.0010126010113336499,0.012968205424204828,-0.7266879799457171,-0.6868445093976369
1658858749.5779262,5499,1658858749,576914496,map,5.792490005493164,6.22244930267334,-0.7283198833465576,-0.0010252855116581069,0.012959159050638089,-0.7266849317972032,-0.6868478862784788
1658858749.6288886,5500,1658858749,626913216,map,5.79487419128418,6.223477363586426,-0.7268480062484741,-0.0010385637841676151,0.012945272202394293,-0.7266740834918319,-0.6868596055193363
1658858749.6848755,5501,1658858749,676913216,map,5.796935558319092,6.224258899688721,-0.7255643010139465,-0.0010499336732324263,0.012921968793798531,-0.7266635539822881,-0.6868711667231374
1658858749.7425096,5502,1658858749,726913216,map,5.798738956451416,6.2248616218566895,-0.7247786521911621,-0.0010554484871047117,0.012909903102717415,-0.726657967097267,-0.6868772956536245
1658858749.7785761,5503,1658858749,776913216,map,5.799867153167725,6.225893497467041,-0.7236037850379944,-0.0010649689741784288,0.012901135051412722,-0.7266615086732987,-0.6868736989928459
1658858749.8284829,5504,1658858749,826913728,map,5.800408363342285,6.227252960205078,-0.7229234576225281,-0.0010759489259564623,0.012884821841971688,-0.7266581734802383,-0.6868775164571725
1658858749.8784676,5505,1658858749,876913728,map,5.80084228515625,6.2283711433410645,-0.7226974964141846,-0.0010711052370636982,0.012884782859563185,-0.7266535326363281,-0.6868824343447556
1658858749.9285614,5506,1658858749,926913984,map,5.8011860847473145,6.229287624359131,-0.7226473689079285,-0.001060039733243949,0.012893554456993993,-0.726653028000223,-0.6868828207688232
1658858749.9765687,5507,1658858749,974913984,map,5.801723480224609,6.229770183563232,-0.7221613526344299,-0.001060831285289715,0.012888947428744121,-0.7266474311233664,-0.6868888268948449
1658858750.0285664,5508,1658858750,26913984,map,5.80289888381958,6.229265213012695,-0.7211511731147766,-0.0010609988052688204,0.012881447804550729,-0.726636787491108,-0.6869002268514663
1658858750.0787563,5509,1658858750,76913984,map,5.803883075714111,6.228714466094971,-0.7205180525779724,-0.0010707482963334468,0.012876374425556156,-0.7266335737933415,-0.6869037064363936
1658858750.1285644,5510,1658858750,126913984,map,5.8047075271606445,6.228115081787109,-0.7194512486457825,-0.0010776852695377303,0.012888096527486072,-0.7266271573117178,-0.6869102632945953
1658858750.1856933,5511,1658858750,176913984,map,5.804731369018555,6.227653980255127,-0.719622790813446,-0.0010711182549532953,0.012885894605900916,-0.7266155733405449,-0.6869225684201099
1658858750.2346127,5512,1658858750,226916800,map,5.804084300994873,6.227290630340576,-0.7202084064483643,-0.001077739272111918,0.012886654400991368,-0.7266151899578376,-0.6869229493465381
1658858750.2906437,5513,1658858750,276916800,map,5.803445816040039,6.226844787597656,-0.7205979228019714,-0.001078977860205625,0.01289681888183509,-0.7266009844271786,-0.6869377826986671
1658858750.3284748,5514,1658858750,326916032,map,5.8028059005737305,6.226325511932373,-0.7210767269134521,-0.00108111673836067,0.012909135108146553,-0.7265974174586431,-0.6869413208999645
1658858750.3785372,5515,1658858750,376916032,map,5.8023247718811035,6.225069999694824,-0.7212856411933899,-0.0010797172655890044,0.012924518215955763,-0.7265989435087017,-0.6869394196954709
1658858750.4284706,5516,1658858750,426916032,map,5.801934242248535,6.22317361831665,-0.7216621041297913,-0.001082805659018493,0.012943407249889582,-0.7265914114421331,-0.6869470260210733
1658858750.4785128,5517,1658858750,476916032,map,5.801490783691406,6.221352577209473,-0.7222216725349426,-0.001087490950042839,0.012960865758570477,-0.7265886972710219,-0.6869495602445794
1658858750.528443,5518,1658858750,526915520,map,5.801011562347412,6.2195844650268555,-0.7220566272735596,-0.0010950522555477214,0.012979076216186936,-0.7265975366143167,-0.686939854883336
1658858750.5785158,5519,1658858750,576915520,map,5.801636695861816,6.218055725097656,-0.7229035496711731,-0.0011075190009495546,0.012995895489951326,-0.7265948533881162,-0.6869423550284104
1658858750.6284738,5520,1658858750,626915008,map,5.803172588348389,6.216732978820801,-0.7247607111930847,-0.0011155967384828933,0.012994012780371145,-0.7265968156616169,-0.6869403020249858
1658858750.6785147,5521,1658858750,676915008,map,5.804465293884277,6.215409755706787,-0.7264870405197144,-0.0011421133975656962,0.013007272922204278,-0.7265984404079718,-0.6869382889494642
1658858750.73835,5522,1658858750,726922688,map,5.805567264556885,6.214091777801514,-0.7277243733406067,-0.0011486050135643554,0.01300774700248445,-0.7265989616578344,-0.6869377178043137
1658858750.7814791,5523,1658858750,776922688,map,5.8073530197143555,6.21353006362915,-0.7293825745582581,-0.0011628769713024861,0.013009084565563312,-0.7265907493073064,-0.6869463548611074
1658858750.8285263,5524,1658858750,826922688,map,5.809680461883545,6.213591575622559,-0.7311238646507263,-0.0011720035064696258,0.01300158405871019,-0.7265926686343589,-0.6869444512524617
1658858750.8784993,5525,1658858750,876922688,map,5.811712741851807,6.213531494140625,-0.7326647043228149,-0.0011957116822572905,0.012985252261313219,-0.7265845817199852,-0.6869532728680151
1658858750.9283657,5526,1658858750,926922432,map,5.8134894371032715,6.213351726531982,-0.7337897419929504,-0.0011969742138568129,0.012966846294686623,-0.7265861399697141,-0.6869519701942868
1658858750.9783769,5527,1658858750,976922432,map,5.815154075622559,6.211874485015869,-0.7339481711387634,-0.0012189700952543792,0.012967185582533552,-0.726577005000316,-0.6869615870008642
1658858751.0283816,5528,1658858751,26922432,map,5.816699028015137,6.209321022033691,-0.7341421246528625,-0.0012259338803266586,0.012961071514292873,-0.726571827652163,-0.6869671658627639
1658858751.0784535,5529,1658858751,76922432,map,5.818056106567383,6.206917762756348,-0.734894335269928,-0.001234803684257379,0.012961396215038922,-0.7265711079399904,-0.6869679050544307
1658858751.1286755,5530,1658858751,126921920,map,5.81923770904541,6.204630374908447,-0.7357200980186462,-0.0012443507030241324,0.012962595293962417,-0.7265676437908422,-0.6869715290394475
1658858751.2173254,5531,1658858751,204921920,map,5.822568416595459,6.197498321533203,-0.7350946068763733,-0.0012474305432287106,0.012957229107136864,-0.7265581873801809,-0.6869816260146488
1658858751.2581851,5532,1658858751,225921920,map,5.823495388031006,6.195352554321289,-0.7337241768836975,-0.0012580239738159758,0.012963284145768224,-0.7265539514228657,-0.6869859724271361
1658858751.2873385,5533,1658858751,275921920,map,5.826710224151611,6.18824577331543,-0.7300036549568176,-0.0013002117934389494,0.012979004187634965,-0.7265513475368597,-0.6869883509143097
1658858751.3301203,5534,1658858751,325924480,map,5.829531669616699,6.18170166015625,-0.7264703512191772,-0.0013289841707552238,0.012990908684936932,-0.7265397677131349,-0.6870003173390514
1658858751.3773606,5535,1658858751,375924480,map,5.832036972045898,6.175642490386963,-0.7231076955795288,-0.0013614918811345228,0.013001256474261747,-0.7265399033360109,-0.6869999145054152
1658858751.4271903,5536,1658858751,425924224,map,5.833901405334473,6.170422077178955,-0.7203845381736755,-0.001391498356428544,0.013033414053119311,-0.7265355352814401,-0.6870038644896805
1658858751.4776483,5537,1658858751,475924224,map,5.835561275482178,6.165468692779541,-0.7175417542457581,-0.0014144948758776838,0.013037640090092905,-0.7265228669602812,-0.6870171343779866
1658858751.5276768,5538,1658858751,525923968,map,5.837038993835449,6.160792827606201,-0.714726448059082,-0.0014387625221090792,0.013056389960446203,-0.7265148403873848,-0.6870252159422525
1658858751.5778885,5539,1658858751,575923968,map,5.838303089141846,6.156816482543945,-0.7133247256278992,-0.0014460149390569618,0.013064784979816928,-0.7265148677721067,-0.6870250121649905
1658858751.6277444,5540,1658858751,625923456,map,5.839349269866943,6.1534528732299805,-0.7130325436592102,-0.0014490677844583304,0.013067838089313003,-0.7265068705441441,-0.6870334044734521
1658858751.6774888,5541,1658858751,675923456,map,5.84023904800415,6.150203227996826,-0.7122606039047241,-0.0014546652485880993,0.013062405948136447,-0.7264948571315767,-0.6870461993645192
1658858751.7277029,5542,1658858751,725922688,map,5.841006278991699,6.147057056427002,-0.7112452983856201,-0.0014431573972488953,0.013059720664784166,-0.7264813778960431,-0.6870605275833791
1658858751.7776914,5543,1658858751,775922688,map,5.842252254486084,6.1446404457092285,-0.7093297243118286,-0.001435656495160214,0.013056154066516296,-0.7264739399671887,-0.6870684756848976
1658858751.8277738,5544,1658858751,825921920,map,5.8438520431518555,6.142849922180176,-0.7066834568977356,-0.0014237928044486176,0.013053357696574126,-0.7264620263553114,-0.687081150178514
1658858751.8773932,5545,1658858751,875921920,map,5.845235347747803,6.141022682189941,-0.7040871381759644,-0.0014127916833624999,0.013045842546008928,-0.7264552556392494,-0.6870884743364839
1658858751.9277155,5546,1658858751,925921408,map,5.846439838409424,6.139162063598633,-0.7015522122383118,-0.0013987884363601947,0.013044244204359831,-0.7264471664161957,-0.6870970859274017
1658858751.9773526,5547,1658858751,975921408,map,5.848251819610596,6.138607978820801,-0.6989495754241943,-0.0013856997618243616,0.013037074394900556,-0.726441471620847,-0.6871032694120514
1658858752.0273535,5548,1658858752,25920896,map,5.850538730621338,6.139194011688232,-0.6964055299758911,-0.0013622574838283584,0.013016397073075087,-0.7264314934494379,-0.6871142575922895
1658858752.0775216,5549,1658858752,75920896,map,5.852546691894531,6.139498233795166,-0.6939769387245178,-0.0013467680107540699,0.012986357882031615,-0.7264254335504564,-0.6871212631085697
1658858752.1272776,5550,1658858752,125920128,map,5.8543219566345215,6.1395745277404785,-0.6916086673736572,-0.0013334574489295343,0.012977995797890347,-0.7264156388158245,-0.6871318019129223
1658858752.1774635,5551,1658858752,175920128,map,5.856455326080322,6.139714241027832,-0.6888476610183716,-0.0013076514358423947,0.012960259660049642,-0.7264071388956728,-0.6871411720153792
1658858752.2275941,5552,1658858752,225919360,map,5.8588409423828125,6.139915943145752,-0.6855653524398804,-0.0012989870506490467,0.012936751467787697,-0.7263959356470436,-0.6871534746834647
1658858752.2770767,5553,1658858752,275919360,map,5.860945224761963,6.1399335861206055,-0.6822431683540344,-0.0012892531041782478,0.012917215396989618,-0.7263868082666628,-0.6871635090347796
1658858752.327163,5554,1658858752,325918592,map,5.862824440002441,6.139805793762207,-0.6790410280227661,-0.0012855335651598345,0.012891745844205757,-0.7263829702728263,-0.6871680513456424
1658858752.3773236,5555,1658858752,375918592,map,5.863251686096191,6.138726234436035,-0.6781154274940491,-0.0012761244407743654,0.012885009416124018,-0.726379394290274,-0.6871719752647458
1658858752.4272559,5556,1658858752,425917312,map,5.863206386566162,6.137372970581055,-0.6776803731918335,-0.0012621975236179988,0.01288750462489858,-0.7263723768292176,-0.6871793719702503
1658858752.477096,5557,1658858752,475917312,map,5.863138198852539,6.136003017425537,-0.6768505573272705,-0.0012402545949521614,0.012890129272271202,-0.7263706845734822,-0.6871811514645425
1658858752.5276241,5558,1658858752,525916288,map,5.863060474395752,6.134602069854736,-0.6758049726486206,-0.0012413973299377217,0.012890205943570543,-0.7263693283699969,-0.6871825815070702
1658858752.577076,5559,1658858752,575916288,map,5.864686965942383,6.132122993469238,-0.6750730276107788,-0.0012335191559741756,0.012890306432067778,-0.7263708846626198,-0.6871809487646047
1658858752.6271238,5560,1658858752,625916800,map,5.8666229248046875,6.12943696975708,-0.6743083000183105,-0.001231836975855783,0.012888925802189333,-0.7263678235465212,-0.6871842133559388
1658858752.6769192,5561,1658858752,675916800,map,5.868319511413574,6.126883029937744,-0.6732358336448669,-0.0012466273882000812,0.012901719212683611,-0.7263661354876713,-0.6871857309186638
1658858752.727427,5562,1658858752,725916032,map,5.869825839996338,6.124407768249512,-0.6720051765441895,-0.0012548631490872024,0.01291421042293867,-0.7263581434903813,-0.6871939288678528
